datetime,picture_file,latitude,longitude,elevation,temp_cpu,temp_h,temp_p,humidity,pressure,pitch,roll,yaw,mag_x,mag_y,mag_z,accel_x,accel_y,accel_z,gyro_x,gyro_y,gyro_z
2022-04-26 08:11:03.312399,BLACKOUT,2.116582623548093,-102.05730780547199,414782.310944168,45.28,39.98,38.42,50.02,1010.98,296.69,227.18,295.81,10.415,-6.2046,2.0359,0.01708,-0.007076,-0.007808,0.001676,0.002064,-0.000903
2022-04-26 08:11:18.312405,BLACKOUT,2.818594435273023,-101.56182554055823,414672.56137091067,49.66,39.93,38.42,49.25,1010.97,299.19,225.73,297.25,16.692,-9.7648,2.8616,0.019032,-0.005612,-0.007076,0.002236,-0.000909,-5.5e-05
2022-04-26 08:11:33.312405,BLACKOUT,3.5828979867993396,-101.02139716006985,414560.16235222114,48.69,39.98,38.41,49.05,1010.97,298.24,228.73,295.05,17.2594,-9.8324,4.5296,0.017324,-0.00732,-0.008052,0.001435,-0.000939,0.001381
2022-04-26 08:11:48.312412,BLACKOUT,4.347679910931612,-100.47933640779634,414455.0961350672,49.66,39.89,38.4,48.94,1010.97,299.22,225.15,295.95,17.2013,-9.434,4.5766,0.017324,-0.00732,-0.007076,-0.000941,0.000568,0.001575
2022-04-26 08:12:03.312419,BLACKOUT,5.112003850685444,-99.9360256047856,414357.4936988859,50.63,39.8,38.41,49.22,1010.94,300.04,224.94,296.88,17.4551,-9.321,4.844,0.019276,-0.005612,-0.008052,2.1e-05,-0.000927,-0.001194
2022-04-26 08:12:18.312425,BLACKOUT,5.874833368031417,-99.39192387147176,414267.4568499451,51.12,40.07,38.44,49.1,1010.99,300.71,219.59,301.81,17.2244,-9.4362,6.235,0.016104,-0.007808,-0.009516,-0.000513,-0.000327,0.000337
2022-04-26 08:12:33.312427,BLACKOUT,6.637926735269601,-98.84549418002455,414184.75379411294,49.66,39.93,38.45,48.94,1010.96,300.85,217.7,304.17,17.3,-9.3574,6.8847,0.017324,-0.007808,-0.009516,-0.002288,0.000429,-0.0015
2022-04-26 08:12:48.312427,BLACKOUT,7.399749755447785,-98.29754821330089,414109.52566619107,51.12,40.13,38.46,48.94,1010.95,301.22,216.91,305.64,17.3064,-9.4007,7.9908,0.016348,-0.005612,-0.008784,0.000253,8.9e-05,-0.001147
2022-04-26 08:13:03.312431,BLACKOUT,8.160883334884366,-97.74738181199757,414041.67213521205,51.61,40.14,38.49,49.43,1010.97,301.11,213.44,307.02,17.1833,-9.3691,7.7569,0.016104,-0.006588,-0.008296,0.002123,0.000682,0.000433
2022-04-26 08:13:18.312437,BLACKOUT,8.921280758343517,-97.19473548797244,413981.15814393666,51.61,40.23,38.53,49.29,1010.96,300.98,216.06,306.37,17.0761,-9.635,8.4299,0.016836,-0.00732,-0.005856,-0.001269,0.00092,0.000152
2022-04-26 08:13:33.312445,BLACKOUT,9.680486256672584,-96.6396454358921,413927.9696687454,52.09,40.11,38.55,48.98,1010.97,298.65,215.64,306.34,17.2448,-9.9736,8.8556,0.016104,-0.007564,-0.006832,0.000596,-0.001049,0.000505
2022-04-26 08:13:48.312448,BLACKOUT,10.43840185650533,-96.08188690421424,413882.0516549027,52.58,40.16,38.59,49.1,1010.97,298.24,215.35,306.95,17.0982,-9.707,9.9975,0.016104,-0.004636,-0.006588,-0.000237,0.000748,-0.000352
2022-04-26 08:14:03.312454,BLACKOUT,11.195183796188266,-95.52104275970511,413843.3299733797,52.09,40.27,38.63,49.26,1010.97,299.26,215.84,305.79,17.0109,-9.2042,11.0418,0.018544,-0.004636,-0.007564,-0.00026,0.001064,0.001341
2022-04-26 08:14:18.312461,BLACKOUT,11.95086715936499,-94.956777159489,413811.73739133845,51.61,40.31,38.67,48.99,1010.97,298.76,214.83,306.93,16.7355,-9.4848,12.0573,0.015616,-0.0061,-0.005612,-0.000791,1.2e-05,-0.001057
2022-04-26 08:14:33.312468,BLACKOUT,12.704942335430625,-94.38915804436682,413787.21978662536,53.07,40.32,38.72,49.22,1010.95,300.4,213.76,308.86,16.5354,-9.8175,11.8723,0.018056,-0.005856,-0.007076,0.00053,0.000615,-9.7e-05
2022-04-26 08:14:48.312472,BLACKOUT,13.45744807649703,-93.8178408556817,413769.6907754572,53.07,40.34,38.76,49.01,1010.95,301.75,214.22,309.11,16.954,-9.4604,12.9279,0.019764,-0.006344,-0.00854,0.000393,0.00091,-0.000123
2022-04-26 08:15:03.312476,BLACKOUT,14.2082514309639,-93.24260465370894,413759.0641060386,53.56,40.4,38.81,47.52,1010.98,300.77,213.19,309.5,16.3323,-10.1668,12.7202,0.016592,-0.006344,-0.007808,-0.001863,-0.000278,-2.7e-05
2022-04-26 08:15:18.312482,BLACKOUT,14.957402712542956,-92.66308168034445,413755.245814726,54.04,40.4,38.85,49.58,1010.97,299.78,214.62,307.54,16.7386,-10.0135,14.4212,0.016348,-0.006832,-0.009516,-0.002685,-0.000292,-0.000225
2022-04-26 08:15:33.312483,BLACKOUT,15.705065177420861,-92.0788048845308,413758.1420771837,54.04,40.38,38.89,49.12,1010.95,301.91,216.75,306.55,16.2538,-9.8058,14.2697,0.016592,-0.00732,-0.008052,0.000646,0.001134,-0.000407
2022-04-26 08:15:48.312484,BLACKOUT,16.450605705442623,-91.48992405145717,413767.6486910692,54.53,40.59,38.93,49.41,1010.96,301.53,216.51,308.58,16.1475,-9.9896,14.5703,0.018056,-0.006344,-0.008296,-0.00055,0.001457,-0.001167
2022-04-26 08:16:03.312487,BLACKOUT,17.193565149503414,-90.89646088022563,413783.6414247863,55.99,40.68,38.99,48.98,1010.95,302.65,218.11,308.22,15.8444,-9.5289,15.2828,0.01586,-0.007076,-0.008784,-0.004184,-2.3e-05,0.001309
2022-04-26 08:16:18.312490,BLACKOUT,17.934986115249874,-90.29722318038927,413806.03013601626,55.02,40.66,39.03,49.03,1010.96,301.75,221.92,305.71,15.6603,-9.7663,16.7503,0.016592,-0.006832,-0.009028,-0.000722,0.000517,0.000326
2022-04-26 08:16:33.312490,BLACKOUT,18.673252663950027,-89.69315484551426,413834.6444065586,55.5,40.68,39.09,49.16,1010.96,300.78,221.71,305.38,15.8458,-10.1401,16.2972,0.018544,-0.005612,-0.00732,-0.000818,-0.000743,-0.000223
2022-04-26 08:16:48.312494,BLACKOUT,19.40983198485488,-89.08268296651553,413869.4160862935,55.5,40.75,39.15,49.12,1010.98,299.96,221.01,306.71,15.7004,-9.97,16.909,0.01586,-0.005856,-0.00732,-0.002898,-0.001886,-0.000781
2022-04-26 08:17:03.312498,BLACKOUT,20.143923633142272,-88.4660748492029,413910.18961362535,55.99,40.79,39.19,48.89,1010.98,300.76,222.7,304.84,15.4203,-10.3524,17.3675,0.01464,-0.006344,-0.007564,-0.002189,-1.8e-05,0.000723
2022-04-26 08:17:18.312505,BLACKOUT,20.87431764910338,-87.84397088829793,413956.7540274877,55.99,40.99,39.24,49.55,1010.96,300.84,219.19,306.22,15.5255,-9.9714,17.4425,0.019032,-0.006832,-0.008296,-0.002275,0.000546,-0.00063
2022-04-26 08:17:33.312513,BLACKOUT,21.602837471684158,-87.21441698619084,414009.08882829867,55.02,40.9,39.3,48.87,1010.94,301.79,219.7,308.5,14.8817,-9.3469,18.2656,0.016348,-0.007076,-0.00976,0.001024,-0.001289,-0.00065
2022-04-26 08:17:48.312518,BLACKOUT,22.328138178061266,-86.57815013626603,414066.9661367176,55.99,40.99,39.34,49.46,1010.93,301.93,219.33,308.62,14.8778,-9.593,19.308,0.016348,-0.006588,-0.009028,0.0007,-0.00014,-1.2e-05
2022-04-26 08:18:03.312525,BLACKOUT,23.050314973387263,-85.93466909257694,414130.2472057516,55.99,40.93,39.4,49.97,1010.97,300.88,221.27,306.42,14.9083,-10.1042,19.424,0.016348,-0.007076,-0.00854,0.000964,5.7e-05,0.000265
2022-04-26 08:18:18.312529,BLACKOUT,23.769864866570803,-85.28308331347526,414198.8363963616,55.5,41.13,39.45,48.83,1010.95,300.98,219.23,307.0,14.4759,-10.1169,20.0549,0.017568,-0.0061,-0.01098,-0.000502,-0.000592,-0.00032
2022-04-26 08:18:33.312532,BLACKOUT,24.48468563223116,-84.62486626167649,414272.3763329883,55.5,41.15,39.51,48.31,1010.96,301.13,216.18,308.39,13.9654,-10.2177,20.368,0.01708,-0.008052,-0.006832,0.001152,0.000303,-0.000826
2022-04-26 08:18:48.312538,BLACKOUT,25.197406942521056,-83.95713433563904,414350.98738160694,55.02,41.26,39.57,48.71,1010.95,301.1,216.08,309.63,14.171,-10.383,20.4607,0.016104,-0.007076,-0.007076,0.004066,0.000296,-0.000209
2022-04-26 08:19:03.312543,BLACKOUT,25.90578077102843,-83.28150209065207,414434.2769296882,55.02,41.22,39.62,48.68,1010.95,300.11,220.04,307.87,13.8039,-10.791,20.8088,0.018056,-0.005368,-0.006588,0.001789,0.000482,-0.001306
2022-04-26 08:19:18.312543,BLACKOUT,26.610505984878063,-82.59682772283409,414522.1669433411,55.5,41.29,39.67,48.77,1010.96,302.24,219.02,306.44,13.3076,-10.3591,22.1916,0.01708,-0.005368,-0.007564,0.000557,-0.001022,-0.000352
2022-04-26 08:19:33.312546,BLACKOUT,27.310553358947466,-81.90362355082057,414614.3675039907,55.02,41.36,39.73,48.3,1010.97,302.42,219.12,305.3,13.3387,-10.9048,20.9602,0.01708,-0.006588,-0.008052,-0.000901,-0.000395,-6e-05
2022-04-26 08:19:48.312548,BLACKOUT,28.006774572572475,-81.20053981854161,414710.8296970245,54.04,41.45,39.78,48.78,1010.98,303.72,215.03,306.79,12.7568,-11.1887,21.0252,0.01586,-0.007564,-0.008784,-0.00056,-5.8e-05,-0.000771
2022-04-26 08:20:03.312552,BLACKOUT,28.698519960433977,-80.48769523037862,414811.30718274973,53.56,41.43,39.83,48.91,1010.95,302.68,214.45,306.96,12.323,-10.5075,22.5379,0.01586,-0.007564,-0.006832,-0.002538,0.000503,-0.000703
2022-04-26 08:20:18.312560,BLACKOUT,29.385804971991494,-79.76452852139104,414915.6423870178,53.56,41.36,39.86,48.74,1010.99,302.77,214.36,307.5,12.2795,-10.4616,23.5013,0.018544,-0.005612,-0.00732,0.001185,-0.001548,-0.000931
2022-04-26 08:20:33.312566,BLACKOUT,30.068626061153918,-79.03046853187891,415023.67832403694,54.53,41.58,39.9,48.86,1010.95,302.68,214.87,308.42,12.382,-10.893,22.8798,0.016104,-0.006344,-0.005856,-0.001535,-0.000272,0.00045
2022-04-26 08:20:48.312570,BLACKOUT,30.745928350429633,-78.2860807713878,415135.08519434347,54.04,41.63,39.95,48.7,1010.97,302.78,213.65,310.91,12.188,-11.0448,23.0423,0.018056,-0.008052,-0.006588,-0.002672,0.001565,9.6e-05
2022-04-26 08:21:03.312570,BLACKOUT,31.418311572431023,-77.53012257726598,415249.7986084605,55.99,41.63,39.98,48.52,1010.96,303.33,214.82,309.78,12.1483,-10.5629,23.5091,0.01708,-0.007808,-0.009028,0.000643,0.002708,0.000135
2022-04-26 08:21:18.312576,BLACKOUT,32.08559142862202,-76.76216828467285,415367.63235436793,55.5,41.65,40.02,48.71,1010.98,303.04,215.01,309.25,11.1627,-10.8748,23.6152,0.017568,-0.007564,-0.010736,2e-06,-0.001891,0.000404
2022-04-26 08:21:33.312577,BLACKOUT,32.74671571739285,-75.9828098158654,415488.23959294567,55.02,41.72,40.05,48.43,1010.97,301.75,217.52,305.75,11.2343,-10.9865,24.8783,0.018056,-0.008052,-0.008052,-0.000843,-0.000669,-0.000754
2022-04-26 08:21:48.312580,BLACKOUT,33.40307487551673,-75.1897356980052,415611.72098498116,54.53,41.76,40.08,48.68,1010.96,303.19,215.75,305.28,10.8269,-11.2657,24.2243,0.015616,-0.009272,-0.009028,-0.001973,-0.000243,-0.001682
2022-04-26 08:22:03.312584,BLACKOUT,34.05231184401973,-74.38512560229634,415737.47749249346,55.02,41.83,40.11,48.72,1010.97,304.06,216.96,306.74,10.9234,-11.3905,25.3714,0.018056,-0.005612,-0.007076,0.00047,0.000831,0.0004
2022-04-26 08:22:18.312590,BLACKOUT,34.69559246978779,-73.56687979428878,415865.57537984796,54.53,41.74,40.15,48.47,1011.0,303.83,220.42,304.64,10.641,-11.4981,25.0888,0.016592,-0.005856,-0.009028,-0.000972,-0.000134,-0.000231
2022-04-26 08:22:33.312594,atlantes_047.jpg,35.33273502726622,-72.7344827865779,415995.8333443887,55.02,41.68,40.18,48.4,1010.99,306.43,220.41,304.2,10.3185,-10.8023,25.1014,0.017812,-0.005856,-0.008296,-0.000246,0.002277,-0.00145
2022-04-26 08:22:48.312596,atlantes_048.jpg,35.96278014330492,-71.88845174523598,416127.9076689273,56.48,41.85,40.21,48.6,1010.99,304.94,221.04,303.45,10.0867,-11.0445,25.3245,0.016592,-0.008296,-0.009516,-0.001099,-0.000209,-0.000832
2022-04-26 08:23:03.312602,atlantes_049.jpg,36.58544219042473,-71.02845350190361,416261.58841105486,55.99,41.74,40.25,48.44,1010.96,303.88,222.8,302.32,9.748,-11.1725,25.4064,0.017324,-0.006588,-0.010248,0.000859,2.4e-05,0.000756
2022-04-26 08:23:18.312607,atlantes_050.jpg,37.20105948631639,-70.15325026847061,416396.80613714096,56.48,41.94,40.27,48.52,1010.95,302.82,221.85,302.14,9.5311,-12.0274,25.2482,0.018056,-0.005856,-0.008052,0.002397,0.000706,-0.001054
2022-04-26 08:23:33.312611,atlantes_051.jpg,37.809357639398506,-69.26240094502553,416533.36679745564,55.02,41.97,40.31,48.4,1010.98,302.47,221.33,301.95,9.5036,-11.757,25.8287,0.0183,-0.006344,-0.006832,0.000259,0.001011,0.000778
2022-04-26 08:23:48.312613,atlantes_052.jpg,38.40926261507782,-68.35667450821092,416670.89390210074,54.04,42.03,40.34,48.79,1011.0,303.92,220.99,300.5,9.0513,-11.8939,26.5246,0.0183,-0.007564,-0.008296,-0.001879,9.5e-05,-0.00136
2022-04-26 08:24:03.312615,atlantes_053.jpg,39.00183560344177,-67.43360070987147,416809.5038137748,55.02,42.06,40.38,48.67,1011.01,305.3,221.02,300.01,8.7125,-11.4478,26.9352,0.019764,-0.0061,-0.007564,-0.001268,-0.00021,0.000472
2022-04-26 08:24:18.312618,atlantes_054.jpg,39.58531737838869,-66.4950359412235,416948.6622122247,53.56,42.15,40.41,48.63,1011.01,305.58,222.57,299.73,8.6575,-11.9707,27.2727,0.016836,-0.008296,-0.010004,-0.002794,-0.001431,-0.000444
2022-04-26 08:24:33.312622,atlantes_055.jpg,40.1598504574466,-65.53991993089437,417088.2785251049,53.56,42.06,40.44,48.7,1011.04,305.53,221.5,300.6,8.2199,-11.7242,27.0838,0.018056,-0.006588,-0.008296,-0.001877,0.001012,0.000167
2022-04-26 08:24:48.312630,atlantes_056.jpg,40.72540273830875,-64.56739488540157,417228.2309272054,54.53,42.08,40.48,48.37,1011.02,304.78,223.4,299.26,8.5171,-11.6982,27.3792,0.01708,-0.007808,-0.007808,-0.002792,0.001012,-0.002582
2022-04-26 08:25:03.312634,atlantes_057.jpg,41.281358357581,-63.577585426636766,417368.25872987544,54.04,42.13,40.5,48.51,1011.03,304.85,224.35,298.91,8.0907,-11.8501,27.4109,0.0183,-0.006344,-0.00732,-0.001265,0.000707,0.001083
2022-04-26 08:25:18.312640,atlantes_058.jpg,41.82764786611473,-62.569657864169294,417508.2420326854,54.04,42.17,40.53,48.54,1011.01,304.81,222.07,300.53,7.6627,-11.8307,27.4879,0.019032,-0.006344,-0.008784,-0.000959,-0.000515,-0.002582
2022-04-26 08:25:33.312644,atlantes_059.jpg,42.363812684519964,-61.543461530371246,417647.96821315144,54.04,42.15,40.54,48.5,1010.98,304.2,220.66,303.32,7.1591,-11.5998,28.0579,0.018056,-0.009028,-0.008784,-0.00218,0.002844,0.000473
2022-04-26 08:25:48.312651,atlantes_060.jpg,42.88880148952125,-60.50007605692022,417787.0694078333,54.04,42.15,40.57,48.42,1011.03,303.82,218.78,303.07,6.5216,-11.4003,27.3657,0.015372,-0.007808,-0.007808,0.000264,-0.000822,-0.000749
2022-04-26 08:26:03.312652,atlantes_061.jpg,43.40361529471232,-59.43648314160824,417925.7280901136,53.56,42.26,40.58,48.44,1011.01,303.98,222.93,299.75,6.7452,-11.8205,28.198,0.016104,-0.006588,-0.008296,0.000875,9.4e-05,-0.000139
2022-04-26 08:26:18.312653,atlantes_062.jpg,43.90675429498053,-58.354703960704335,418063.46602377854,53.56,42.29,40.6,48.49,1010.99,302.89,221.11,299.88,6.6903,-11.478,28.4165,0.01952,-0.005856,-0.009516,-0.001567,-0.000822,-0.000139
2022-04-26 08:26:33.312653,atlantes_063.jpg,44.398554851865285,-57.25296226580064,418200.3054716784,53.56,42.26,40.62,48.42,1010.96,302.66,219.13,300.63,6.5577,-11.8252,28.653,0.018544,-0.0061,-0.007808,0.000571,-0.000516,0.000472
2022-04-26 08:26:48.312657,atlantes_064.jpg,44.877816323170094,-56.13289264335579,418335.8491011499,54.04,42.31,40.64,48.09,1010.95,302.32,218.21,300.85,6.1578,-11.7513,27.69,0.018788,-0.007564,-0.008784,-0.001566,-0.001126,-0.001055
2022-04-26 08:27:03.312660,atlantes_065.jpg,45.344702197590316,-54.993077680029835,418470.08550901694,53.07,42.35,40.66,48.5,1010.99,302.1,218.23,299.05,5.8678,-11.7509,28.642,0.0183,-0.007808,-0.007076,-0.001566,0.002233,-0.000749
2022-04-26 08:27:18.312666,atlantes_066.jpg,45.79882155791153,-53.8333328943155,418602.85609427845,54.04,42.2,40.68,48.29,1011.01,303.98,221.77,298.69,5.7945,-12.1347,28.1298,0.018788,-0.006832,-0.00854,-0.001261,-0.00021,-0.000138
2022-04-26 08:27:33.312670,atlantes_067.jpg,46.24002790205789,-52.652821042599754,418734.0815551968,53.56,42.22,40.69,48.41,1010.97,304.04,220.63,298.2,5.3807,-11.9169,28.6188,0.017812,-0.006344,-0.008296,-0.003397,9.6e-05,-0.000139
2022-04-26 08:27:48.312670,atlantes_068.jpg,46.66691713425835,-51.45420676988776,418863.30982399016,53.56,42.37,40.7,48.12,1010.99,304.51,217.3,300.33,4.8476,-11.7102,28.566,0.01708,-0.006344,-0.006588,-0.001869,-0.00082,0.001388
2022-04-26 08:28:03.312677,atlantes_069.jpg,47.080026608343125,-50.234883050269126,418990.67640360864,53.56,42.37,40.72,48.34,1010.99,304.32,218.26,299.85,4.842,-11.9183,29.1477,0.018056,-0.007808,-0.00976,0.002408,0.001929,0.002915
2022-04-26 08:28:18.312682,atlantes_070.jpg,47.47827919448832,-48.99686648034704,419115.83175244805,54.04,42.28,40.74,48.45,1010.98,304.67,217.34,300.25,4.3343,-11.4206,29.338,0.015128,-0.008296,-0.007564,-0.001562,-0.002347,-0.000444
2022-04-26 08:28:33.312682,atlantes_071.jpg,47.86145823352821,-47.73976947007866,419238.69360186113,53.56,42.38,40.75,48.34,1011.0,303.49,216.37,299.53,4.5051,-11.4259,28.7085,0.017324,-0.008296,-0.007808,-0.002171,0.000402,-0.00075
2022-04-26 08:28:48.312687,atlantes_072.jpg,48.22958331255405,-46.462295199745505,419359.26746710815,54.04,42.4,40.77,48.16,1011.02,302.88,215.76,299.15,4.6935,-11.0386,29.004,0.016104,-0.00732,-0.007564,-0.001864,0.001013,0.000167
2022-04-26 08:29:03.312688,atlantes_073.jpg,48.58146260455546,-45.1674418190869,419477.1657475713,54.04,42.37,40.78,48.4,1010.98,303.33,217.48,298.37,4.2795,-11.3334,28.9871,0.018544,-0.007564,-0.007564,-0.000642,-0.000209,-0.000444
2022-04-26 08:29:18.312689,atlantes_074.jpg,48.91750033215354,-43.85255833998395,419592.5343779879,54.04,42.38,40.8,48.18,1010.99,303.53,216.46,297.7,3.7111,-11.648,28.9105,0.018056,-0.007564,-0.00976,-0.000946,-0.000515,-0.000443
2022-04-26 08:29:33.312692,atlantes_075.jpg,49.23672008029966,-42.52021864084161,419705.0582855156,53.07,42.4,40.81,48.39,1010.98,302.84,215.52,298.45,3.3577,-11.204,29.0259,0.016104,-0.009272,-0.008784,-0.001557,0.001318,-0.000443
2022-04-26 08:29:48.312698,atlantes_076.jpg,49.53889002301302,-41.17029124294134,419814.6771709905,54.53,42.47,40.83,48.11,1010.96,303.42,212.39,299.59,3.3692,-11.7698,28.5251,0.01586,-0.007564,-0.009272,-0.000639,-0.001125,-0.000748
2022-04-26 08:30:03.312703,atlantes_077.jpg,49.823603461476594,-39.80344119759861,419921.273024287,54.53,42.44,40.84,47.99,1010.99,303.02,212.78,298.03,3.3824,-11.2236,28.2588,0.018056,-0.006588,-0.009516,-0.000638,9.7e-05,-0.001053
2022-04-26 08:30:18.312705,atlantes_078.jpg,50.090448501959955,-38.420529434077686,420024.72590030695,53.56,42.45,40.85,48.25,1010.95,301.64,212.56,298.63,3.0935,-11.4982,29.2491,0.017812,-0.006344,-0.00854,-0.001552,0.000403,-0.000136
2022-04-26 08:30:33.312710,atlantes_079.jpg,50.33929629233216,-37.02098380408741,420125.03006771073,54.53,42.45,40.86,48.21,1010.98,302.7,213.9,297.38,3.0085,-11.2717,29.6531,0.018788,-0.00488,-0.009516,-0.00033,0.001014,-0.001357
2022-04-26 08:30:48.312717,atlantes_080.jpg,50.56943581163471,-35.607652838390855,420221.94534746965,55.5,42.45,40.88,48.23,1010.99,302.77,213.66,297.94,2.1478,-11.5817,28.4855,0.016104,-0.007564,-0.010248,-0.000328,-0.000513,0.000781
2022-04-26 08:31:03.312724,atlantes_081.jpg,50.780722662250525,-34.18041844348114,420315.457208886,54.04,42.58,40.89,48.32,1010.93,300.51,213.97,298.66,2.4654,-11.071,29.3074,0.016104,-0.006588,-0.009516,0.001505,-0.00143,-0.001967
2022-04-26 08:31:18.312730,atlantes_082.jpg,50.97274687231883,-32.74102470246161,420405.4357066686,54.04,42.47,40.92,48.23,1010.9,301.92,212.35,301.57,2.4257,-11.4179,29.23,0.016104,-0.007076,-0.007564,-0.000631,9.8e-05,-0.000439
2022-04-26 08:31:33.312730,atlantes_083.jpg,51.14537704868738,-31.28938972848192,420491.87633679627,55.02,42.56,40.94,48.29,1010.9,302.26,211.24,303.54,1.9587,-11.239,29.5936,0.017812,-0.008052,-0.010004,0.000286,0.000403,-0.00105
2022-04-26 08:31:48.312730,atlantes_084.jpg,51.29838209666066,-29.826101731081263,420574.73430022213,55.02,42.63,40.96,48.3,1010.92,302.59,213.88,302.07,1.9597,-11.3603,29.0934,0.01708,-0.007564,-0.008296,-0.000935,0.00193,-0.001355
2022-04-26 08:32:03.312733,atlantes_085.jpg,51.4313364437711,-28.354103679831635,420653.8452521977,54.04,42.65,40.97,48.16,1010.93,301.61,215.12,301.3,1.9536,-11.1083,28.8732,0.015372,-0.007808,-0.010248,-0.000629,-0.000819,-0.000437
2022-04-26 08:32:18.312739,atlantes_086.jpg,51.54411734735013,-26.873861725195226,420729.1967470904,53.56,42.6,40.99,48.05,1010.95,301.7,213.23,301.7,1.9949,-11.2921,29.5806,0.015616,-0.00732,-0.007076,-0.000933,0.000402,0.00048
2022-04-26 08:32:33.312746,atlantes_087.jpg,51.63652369343585,-25.387051141639276,420800.71984022873,54.53,42.67,41.01,48.13,1010.96,302.88,214.72,300.46,1.8954,-11.8892,28.3258,0.018788,-0.00732,-0.008052,-0.002459,0.000403,-0.001046
2022-04-26 08:32:48.312749,atlantes_088.jpg,51.708481520025444,-23.893568901925413,420868.43636131,55.02,42.69,41.02,48.23,1010.94,302.49,217.0,299.08,1.8218,-11.7175,28.6993,0.016348,-0.006588,-0.008052,-0.000625,0.001625,-0.000741
2022-04-26 08:33:03.312757,atlantes_089.jpg,51.759778467306255,-22.396646234712396,420932.2228339096,54.53,42.65,41.04,48.12,1010.92,302.74,216.73,297.6,1.4614,-12.146,29.3093,0.020252,-0.006588,-0.009028,-0.00215,0.001013,-0.000434
2022-04-26 08:33:18.312761,atlantes_090.jpg,51.790374364718026,-20.896856145136454,420992.08602821984,54.53,42.62,41.06,47.95,1010.9,303.14,214.83,297.63,1.0168,-11.5625,29.0471,0.016104,-0.008052,-0.00976,0.000295,0.000708,-0.000739
2022-04-26 08:33:33.312765,atlantes_091.jpg,51.80021688842208,-19.395735229850338,421047.9963632306,54.04,42.76,41.08,48.07,1010.95,303.08,213.46,297.02,0.738,-12.0642,29.033,0.015372,-0.008052,-0.008784,-0.001536,9.7e-05,-0.001655
2022-04-26 08:33:48.312772,atlantes_092.jpg,51.789307445956375,-17.895772220171157,421099.90065006545,55.02,42.78,41.08,47.93,1010.93,301.65,214.16,297.26,0.7441,-11.4739,29.0247,0.019276,-0.006588,-0.008296,-0.002145,-0.00143,-0.001044
2022-04-26 08:34:03.312772,atlantes_093.jpg,51.75762975197601,-16.395518065051235,421147.8841100364,54.53,42.71,41.11,48.21,1010.91,301.77,213.87,296.98,1.0184,-11.251,29.3791,0.016592,-0.008784,-0.00854,-0.001838,0.001625,0.000178
2022-04-26 08:34:18.312779,atlantes_094.jpg,51.70526658170337,-14.898875486482728,421191.8579654368,54.53,42.72,41.12,48.0,1010.89,301.76,212.09,297.93,0.2284,-11.6243,29.0493,0.016836,-0.00854,-0.009516,-0.002752,-0.000513,-0.001654
2022-04-26 08:34:33.312784,atlantes_095.jpg,51.63229347515297,-13.406529790888122,421231.8473511389,54.53,42.72,41.14,48.0,1010.99,301.92,212.41,297.16,0.7168,-12.0975,28.2963,0.014884,-0.007808,-0.009028,-0.000918,-0.00204,-0.001959
2022-04-26 08:34:48.312786,atlantes_096.jpg,51.53888139542278,-11.920604340622718,421267.84290229087,54.53,42.81,41.15,48.28,1010.98,303.94,210.78,297.74,-0.0141,-11.8569,28.5773,0.01708,-0.006588,-0.006344,-0.000916,-0.001735,-0.000737
2022-04-26 08:35:03.312793,atlantes_097.jpg,51.42503478567829,-10.4403192789334,421299.90787879773,55.02,42.78,41.16,48.11,1010.97,302.58,213.3,295.62,-0.5048,-11.9046,28.4697,0.01708,-0.006588,-0.007076,-0.000914,-0.001734,0.001706
2022-04-26 08:35:18.312800,atlantes_098.jpg,51.291040282963195,-8.968631171274762,421328.0229794877,55.5,42.8,41.18,47.87,1011.0,303.67,211.47,296.47,-0.9445,-11.5076,28.6367,0.0183,-0.008296,-0.007808,-0.002745,-0.000512,-0.001042
2022-04-26 08:35:33.312808,atlantes_099.jpg,51.13714876267213,-7.507026806774195,421352.21403317037,54.04,42.81,41.19,48.19,1010.98,303.82,213.71,294.66,-0.6891,-11.6724,28.0909,0.015616,-0.008296,-0.00854,-0.002133,0.00071,-0.001042
2022-04-26 08:35:48.312812,atlantes_100.jpg,50.96362237174917,-6.056690830296288,421372.51888640184,55.02,42.81,41.21,47.91,1011.0,303.23,213.29,294.83,-1.1164,-11.8066,28.5281,0.016348,-0.0061,-0.008784,-0.003964,0.0001,-0.001041
2022-04-26 08:36:03.312812,atlantes_101.jpg,50.770510200707186,-4.617049055209319,421388.99900619587,54.04,42.83,41.22,47.86,1010.97,302.49,212.5,294.31,-1.2669,-12.0922,28.0794,0.016836,-0.007076,-0.005856,0.000314,0.0001,-0.001041
2022-04-26 08:36:18.312820,atlantes_102.jpg,50.55832204915977,-3.1908883426618724,421401.6787537525,54.53,42.9,41.24,47.97,1010.98,303.37,211.22,295.42,-0.9437,-12.1588,27.9918,0.01708,-0.006832,-0.008052,-0.002739,-0.000206,-0.000429
2022-04-26 08:36:33.312821,atlantes_103.jpg,50.3273681001421,-1.7790274263517634,421410.6160716796,54.04,42.9,41.25,48.05,1010.98,302.68,212.75,292.71,-1.1462,-12.1299,27.8842,0.019032,-0.00732,-0.00854,-0.004569,0.001322,-0.000429
2022-04-26 08:36:48.312825,atlantes_104.jpg,50.077848770206,-0.3815589199095706,421415.8750677742,55.5,42.85,41.27,48.2,1010.98,302.57,211.81,293.75,-1.3963,-12.1351,28.7429,0.015616,-0.00732,-0.00854,-0.002123,-0.001732,-0.000734
2022-04-26 08:37:03.312826,atlantes_105.jpg,49.81018945466951,1.0002324809534437,421417.5177406379,54.53,42.96,41.29,48.24,1010.98,302.14,212.17,293.31,-1.4335,-12.2223,28.4346,0.017324,-0.006588,-0.00732,0.000322,0.001628,-0.000733
2022-04-26 08:37:18.312829,atlantes_106.jpg,49.5247476082045,2.365657650837396,421415.61544284574,54.53,42.83,41.3,47.94,1010.97,302.61,211.95,294.26,-1.7704,-11.6598,28.7856,0.0183,-0.009028,-0.007808,-0.00212,-0.00051,-0.000122
2022-04-26 08:37:33.312833,atlantes_107.jpg,49.22175719642288,3.714683260112038,421410.24180236674,54.53,42.83,41.31,48.06,1011.0,302.22,211.74,295.19,-1.9619,-12.2453,28.0236,0.019276,-0.007564,-0.00732,-0.00059,-0.001426,-0.000122
2022-04-26 08:37:48.312833,atlantes_108.jpg,48.90213111930903,5.044506980823928,421401.4921145785,53.56,43.05,41.32,47.92,1010.95,302.39,210.17,295.94,-1.9979,-11.933,28.6987,0.015616,-0.007808,-0.00854,-0.003031,-0.000204,-0.001343
2022-04-26 08:38:03.312838,atlantes_109.jpg,48.565452542265184,6.358006553576244,421389.43166491325,54.04,42.88,41.35,47.82,1010.96,302.75,212.58,293.86,-2.5284,-12.5278,28.6107,0.0183,-0.00732,-0.010248,-0.002112,-0.000814,-0.001343
2022-04-26 08:38:18.312839,atlantes_110.jpg,48.2128552116204,7.651860536733089,421374.17818219104,54.53,42.96,41.36,48.01,1010.98,301.89,214.44,289.91,-2.2266,-12.7871,28.2883,0.01708,-0.007564,-0.008784,-0.003942,0.000102,-0.001648
2022-04-26 08:38:33.312845,atlantes_111.jpg,47.84441094934547,8.927048392032713,421355.8185664138,55.02,42.96,41.37,48.06,1010.94,301.42,212.87,290.17,-3.0746,-12.2576,27.5102,0.019032,-0.006588,-0.00854,-0.003023,0.000408,0.001102
2022-04-26 08:38:48.312852,atlantes_112.jpg,47.460592020324356,10.183077511362947,421334.45930887957,54.53,43.03,41.39,47.98,1010.92,301.94,212.7,289.73,-2.903,-12.2374,28.1358,0.016836,-0.007808,-0.009516,-0.001494,0.001019,-0.000731
2022-04-26 08:39:03.312853,atlantes_113.jpg,47.062048597027754,11.419034138287362,421310.2244134535,55.02,42.97,41.4,47.93,1010.93,303.42,211.2,291.66,-3.4219,-12.5103,28.1446,0.015128,-0.006588,-0.010248,3.6e-05,-0.001118,-0.001646
2022-04-26 08:39:18.312855,atlantes_114.jpg,46.64879916659939,12.636022647300125,421283.2041621177,55.5,43.03,41.41,47.96,1010.92,303.0,209.6,292.91,-3.2923,-12.5927,27.7748,0.016348,-0.008296,-0.008784,-0.003016,-0.002034,-0.000118
2022-04-26 08:39:33.312857,atlantes_115.jpg,46.22130982167046,13.833744445040207,421253.51881723764,53.56,43.1,41.43,47.97,1010.91,303.58,206.92,292.61,-3.8385,-12.4487,27.6837,0.018544,-0.007076,-0.008784,-0.004234,0.000715,-0.001339
2022-04-26 08:39:48.312859,atlantes_116.jpg,45.780312226964675,15.011295621164125,421221.3144263031,55.99,43.03,41.45,47.87,1010.94,303.51,208.47,290.47,-4.2336,-12.9437,27.3091,0.0183,-0.007076,-0.010736,-0.002399,-0.000507,-0.000727
2022-04-26 08:40:03.312860,atlantes_117.jpg,45.326242976633694,16.16870610199073,421186.7229241854,55.5,43.05,41.46,47.78,1010.85,303.37,211.76,288.56,-4.7911,-12.6379,27.8853,0.016348,-0.00732,-0.009272,-0.001481,0.001326,-0.000727
2022-04-26 08:40:18.312863,atlantes_118.jpg,44.858897477986524,17.30757225718172,421149.8293053445,55.02,43.15,41.48,47.61,1010.88,303.74,214.45,285.2,-5.2259,-12.9783,27.323,0.01708,-0.008296,-0.007808,-0.004228,-0.000812,-0.000726
2022-04-26 08:40:33.312871,atlantes_119.jpg,44.37957420122027,18.425835025684755,421110.84114802425,54.04,43.06,41.49,47.83,1010.88,302.83,212.68,285.84,-5.4715,-13.2618,26.7096,0.017812,-0.008296,-0.00732,-0.003004,0.000104,0.000496
2022-04-26 08:40:48.312873,atlantes_120.jpg,43.88750304543323,19.52634517588435,421069.8037285628,54.53,43.12,41.5,48.06,1010.93,303.4,211.08,286.9,-5.5092,-13.2363,26.8557,0.018544,-0.006832,-0.007808,-0.002696,-0.001117,-0.00042
2022-04-26 08:41:03.312876,atlantes_121.jpg,43.38424820603899,20.606640490736012,421026.9589055944,54.53,43.23,41.53,47.77,1010.93,302.5,213.91,284.28,-5.4514,-13.6498,27.2824,0.01952,-0.007808,-0.00854,-0.001777,-0.001117,-0.00042
2022-04-26 08:41:18.312882,atlantes_122.jpg,42.869701497883646,21.668064335921667,420982.41427201143,55.99,43.15,41.53,46.32,1010.93,301.9,210.91,285.17,-6.3161,-13.3801,27.2017,0.016348,-0.007564,-0.010736,-0.000859,0.001021,-0.000724
2022-04-26 08:41:33.312885,atlantes_123.jpg,42.34446894292102,22.71041826500726,420936.3417119076,55.02,43.14,41.55,47.87,1010.94,302.0,210.23,285.81,-6.5842,-13.6824,26.4026,0.016592,-0.009028,-0.00732,-0.001467,0.001326,-0.000723
2022-04-26 08:41:48.312886,atlantes_124.jpg,41.80885450765515,23.73414670790601,420888.89091755915,55.02,43.19,41.56,48.17,1010.93,301.76,210.94,284.61,-6.4853,-13.7557,26.4322,0.01708,-0.008296,-0.009272,-0.004214,-0.001423,-0.001638
2022-04-26 08:42:03.312892,atlantes_125.jpg,41.2625852309209,24.74072282461589,420840.1633402138,54.04,43.14,41.57,47.68,1010.91,302.76,210.49,285.45,-6.5809,-13.7519,25.8284,0.017568,-0.009516,-0.010248,6.4e-05,-0.0002,-0.000722
2022-04-26 08:42:18.312897,atlantes_126.jpg,40.70711865019303,25.728438994478218,420790.4183956262,55.5,43.21,41.58,47.67,1010.9,302.8,210.29,284.44,-7.0556,-13.7234,26.3919,0.01586,-0.008296,-0.006832,-0.003904,-0.001727,0.001417
2022-04-26 08:42:33.312897,atlantes_127.jpg,40.141351495343194,26.700184952640434,420739.6900534536,55.99,43.15,41.61,47.76,1010.94,302.93,210.16,284.03,-7.9614,-14.4013,25.5033,0.017568,-0.006832,-0.00976,-0.002679,0.000106,0.000196
2022-04-26 08:42:48.312897,atlantes_128.jpg,39.56701169943,27.65389312688109,420688.26914621994,56.97,43.21,41.62,47.59,1010.94,303.41,209.59,284.35,-7.9921,-13.831,25.2277,0.01586,-0.006588,-0.00732,-0.003593,-0.0002,-0.002552
2022-04-26 08:43:03.312900,atlantes_129.jpg,38.984240320451725,28.590309714005446,420636.30691509246,55.02,43.3,41.62,47.77,1010.94,304.62,208.58,283.88,-8.1301,-14.1611,24.8438,0.018056,-0.009272,-0.010492,-0.003896,-0.000505,-0.000108
2022-04-26 08:43:18.312902,atlantes_130.jpg,38.39266315148191,29.51091963360007,420583.9116902412,56.48,43.23,41.65,47.76,1010.97,304.77,207.29,282.69,-8.6746,-14.4334,25.0984,0.015616,-0.008052,-0.00732,-0.003588,0.000106,-0.00194
2022-04-26 08:43:33.312904,atlantes_131.jpg,37.793260955662014,30.415055154545673,420531.31466260663,55.99,43.14,41.67,47.85,1010.93,304.4,207.64,281.47,-9.3564,-14.5152,25.3444,0.017324,-0.005856,-0.007076,-0.002669,0.000106,-0.000718
2022-04-26 08:43:48.312911,atlantes_132.jpg,37.18569453597818,31.304067892157125,420478.6329795318,55.5,43.31,41.69,47.71,1010.91,304.33,205.66,282.3,-9.325,-14.7046,24.6071,0.018056,-0.009272,-0.008052,-0.002361,0.000107,-0.000717
2022-04-26 08:44:03.312912,atlantes_133.jpg,36.570248158074776,32.178317662182955,420426.041698473,54.53,43.24,41.71,47.89,1010.93,304.27,207.54,279.03,-9.5436,-14.4699,24.1427,0.0183,-0.00732,-0.007808,-0.002664,0.000413,0.0002
2022-04-26 08:44:18.312917,atlantes_134.jpg,35.94785177622432,33.03727993592334,420373.7717715364,55.02,43.46,41.72,47.83,1010.95,305.08,205.1,278.97,-10.0467,-14.4057,23.898,0.016836,-0.00732,-0.010004,-0.001439,-0.000809,-0.001937
2022-04-26 08:44:33.312923,atlantes_135.jpg,35.31843935725808,33.88183885148835,420321.97033780295,55.02,43.31,41.73,47.64,1010.94,304.49,206.38,278.4,-10.1872,-14.6373,24.0008,0.0183,-0.006588,-0.007808,-0.001437,-0.000198,0.000202
2022-04-26 08:44:48.312925,atlantes_136.jpg,34.68239386564422,34.71223764978665,420270.8236894533,54.53,43.33,41.74,48.7,1010.97,302.98,207.52,278.4,-10.5749,-15.0059,23.9974,0.01952,-0.007808,-0.008784,-0.002961,-0.001113,-0.000714
2022-04-26 08:45:03.312932,atlantes_137.jpg,34.03976473636022,35.52914280497116,420220.4922788749,54.53,43.44,41.76,47.6,1010.96,302.77,205.54,279.95,-10.4479,-15.421,22.0329,0.01708,-0.00854,-0.010736,-0.000821,0.002552,-0.000102
2022-04-26 08:45:18.312940,atlantes_138.jpg,33.390555013230056,36.333238512867254,420171.1356004209,55.5,43.37,41.79,47.86,1010.93,301.65,205.86,277.97,-11.1267,-15.1338,21.998,0.017568,-0.008296,-0.010004,-0.003568,-0.000503,-0.000407
2022-04-26 08:45:33.312944,atlantes_139.jpg,32.73566102768904,37.124103038050855,420122.98070594674,55.99,43.42,41.79,47.6,1010.98,301.98,206.66,277.6,-12.0071,-15.2777,22.1319,0.016348,-0.008784,-0.008296,-0.002039,0.000108,-0.002238
2022-04-26 08:45:48.312952,atlantes_140.jpg,32.0749635782904,37.902562910293156,420076.17732503254,55.5,43.35,41.8,47.53,1011.0,302.6,207.04,275.1,-11.9128,-15.4622,21.7544,0.017568,-0.007076,-0.007808,-0.004479,-0.000503,-0.001627
2022-04-26 08:46:03.312957,atlantes_141.jpg,31.409056501180274,38.66858064215925,420030.92622072285,55.99,43.37,41.81,47.44,1010.95,302.01,207.86,273.51,-12.3216,-15.5242,21.7372,0.018788,-0.008784,-0.010492,-0.002643,-0.002335,-0.001015
2022-04-26 08:46:18.312962,atlantes_142.jpg,30.737611706527,39.4231690802353,419987.3647267973,54.53,43.48,41.82,47.65,1010.96,303.11,206.85,272.34,-12.6838,-16.1611,20.7805,0.01586,-0.008296,-0.006344,-0.006305,0.001025,-0.001625
2022-04-26 08:46:33.312964,atlantes_143.jpg,30.06061099293582,40.1669358012914,419945.65497243067,54.53,43.42,41.83,47.38,1010.98,303.22,211.1,267.7,-13.1886,-16.159,20.544,0.01586,-0.008052,-0.008052,-0.002942,-0.000197,-9.7e-05
2022-04-26 08:46:48.312969,atlantes_144.jpg,29.379018194354945,40.899412282760814,419906.0169195463,55.5,43.44,41.86,47.81,1010.95,303.24,207.61,269.24,-13.5177,-16.2203,19.7951,0.020008,-0.007076,-0.009028,-0.002023,-0.000196,0.00082
2022-04-26 08:47:03.312973,atlantes_145.jpg,28.692706259570897,41.621323822058855,419868.60096793564,55.02,43.51,41.87,47.64,1010.97,303.34,209.18,267.13,-13.8635,-16.156,20.083,0.017324,-0.007564,-0.00976,-0.002631,0.000415,-9.6e-05
2022-04-26 08:47:18.312973,atlantes_146.jpg,28.001835260060037,42.333061241245225,419833.57467261294,55.5,43.58,41.87,47.49,1010.98,301.78,206.6,267.44,-14.3924,-16.2133,19.4468,0.016592,-0.008784,-0.008052,-0.002017,-0.002944,-0.001011
2022-04-26 08:47:33.312974,atlantes_147.jpg,27.306583291809176,43.03498295805544,419801.1050727821,55.02,43.64,41.88,47.6,1011.0,301.36,206.09,267.28,-14.9175,-16.6796,18.4557,0.015616,-0.008296,-0.007564,-0.003235,-0.000805,-0.002232
2022-04-26 08:47:48.312982,atlantes_148.jpg,26.607174547710024,43.727390159401246,419771.3591241281,55.5,43.49,41.89,47.67,1010.97,301.64,206.34,264.99,-15.5588,-16.8056,19.3624,0.020008,-0.005612,-0.006832,-0.003233,0.001027,-0.001315
2022-04-26 08:48:03.312982,atlantes_149.jpg,25.903772346275186,44.4106346447496,419744.4984743793,55.99,43.53,41.9,47.35,1010.97,302.08,207.76,262.96,-15.0372,-16.942,17.9859,0.016348,-0.008296,-0.009028,-0.001092,-0.001416,0.000213
2022-04-26 08:48:18.312988,atlantes_150.jpg,25.196539302127302,45.08505692860181,419720.68230954325,55.02,43.48,41.92,47.61,1010.95,303.78,204.39,262.92,-16.0212,-16.7008,17.4796,0.015128,-0.006832,-0.008784,-0.003837,0.001027,-0.001313
2022-04-26 08:48:33.312989,atlantes_151.jpg,24.485615510747728,45.7510071634304,419700.0664491015,54.53,43.57,41.93,47.44,1010.96,303.72,204.73,262.57,-16.161,-16.866,16.4169,0.01586,-0.0061,-0.00854,-0.004445,0.001027,0.001742
2022-04-26 08:48:48.312991,atlantes_152.jpg,23.771177709074852,46.40879003013874,419682.8048395592,55.5,43.53,41.95,47.78,1010.96,302.28,205.43,261.61,-16.5956,-16.7226,16.2338,0.019032,-0.00732,-0.009028,-0.002915,-0.002027,0.001437
2022-04-26 08:49:03.312998,atlantes_153.jpg,23.053188794577615,47.05889319175666,419669.0441521335,55.99,43.58,41.96,47.43,1010.97,302.23,206.03,260.37,-17.034,-16.9304,15.8357,0.019032,-0.008784,-0.009028,-0.000469,0.001027,-0.00131
2022-04-26 08:49:18.313005,atlantes_154.jpg,22.33217183595627,47.70128843313408,419658.93781964586,54.53,43.64,41.97,47.45,1010.97,303.15,206.53,258.73,-17.628,-16.5532,15.2743,0.015616,-0.007808,-0.009516,-0.00352,-0.000805,-0.001921
2022-04-26 08:49:33.313009,atlantes_155.jpg,21.608050432018512,48.336480673776,419652.62395666813,54.53,43.58,41.98,47.46,1010.99,303.22,206.73,258.47,-17.6064,-17.5255,14.4359,0.016104,-0.009272,-0.008052,-0.002602,-0.00111,-0.000393
2022-04-26 08:49:48.313014,atlantes_156.jpg,20.88087801386603,48.964842141407125,419650.2413920011,55.5,43.69,41.99,47.58,1011.01,303.22,208.5,255.71,-18.0691,-17.0518,13.9187,0.017568,-0.0061,-0.009272,-0.001072,-0.000499,-0.000392
2022-04-26 08:50:03.313017,atlantes_157.jpg,20.15118422325994,49.58632930300547,419651.92421729537,55.02,43.57,42.01,47.36,1010.98,303.57,208.02,254.55,-18.0478,-17.3777,13.4052,0.017324,-0.007808,-0.010736,-0.000153,-0.00111,0.000219
2022-04-26 08:50:18.313022,atlantes_158.jpg,19.41830447917044,50.20190478587937,419657.8060736468,54.53,43.64,42.02,47.38,1010.98,303.44,208.04,253.33,-18.3788,-17.4658,12.8073,0.01708,-0.009272,-0.010004,-0.003205,-0.000498,-0.000697
2022-04-26 08:50:33.313028,atlantes_159.jpg,18.68363462714464,50.81079074744166,419667.99984386755,54.04,43.51,42.03,47.55,1010.99,302.96,207.31,250.87,-18.9504,-17.267,11.7014,0.016348,-0.008296,-0.00732,-0.000149,-0.001415,-0.001612
2022-04-26 08:50:48.313028,atlantes_160.jpg,17.946088867728754,51.4142732300322,419682.6400821833,55.5,43.64,42.05,47.37,1011.0,303.22,208.42,247.23,-19.5818,-17.5558,10.9869,0.0183,-0.006832,-0.00854,-0.003505,0.000418,-0.000389
2022-04-26 08:51:03.313028,atlantes_161.jpg,17.206814115621494,52.01178725552305,419701.8207167413,55.5,43.69,42.05,47.45,1010.96,303.6,204.18,248.58,-19.8171,-17.4829,9.8174,0.016348,-0.007808,-0.006832,0.000163,0.001946,-0.00161
2022-04-26 08:51:18.313030,atlantes_162.jpg,16.46488627987004,52.604444643118484,419725.67813783465,55.5,43.69,42.07,47.5,1010.98,302.85,204.49,247.49,-19.9269,-17.8387,8.905,0.01708,-0.0061,-0.006832,-0.002585,0.000723,-0.001914
2022-04-26 08:51:33.313035,atlantes_163.jpg,15.720446987279558,53.19247519762943,419754.3251138563,55.02,43.74,42.09,47.5,1010.95,302.47,205.64,245.49,-20.3915,-17.8088,9.0056,0.01708,-0.007564,-0.007076,-0.001971,-0.001415,0.000225
2022-04-26 08:51:48.313038,atlantes_164.jpg,14.974409945125075,53.77550419070127,419787.8312609754,55.99,43.71,42.1,47.22,1010.97,302.07,204.74,245.09,-20.4655,-17.984,8.1753,0.018544,-0.008052,-0.009516,-0.002885,0.00164,-0.001912
2022-04-26 08:52:03.313046,atlantes_165.jpg,14.226755090300143,54.35389531880067,419826.2907360454,56.48,43.65,42.11,47.42,1010.93,303.51,207.1,241.53,-21.2745,-17.9239,6.9698,0.016836,-0.009028,-0.010736,-0.003798,-0.000803,-0.000995
2022-04-26 08:52:18.313053,atlantes_166.jpg,13.4772804205858,54.92814034443775,419869.8062278425,57.45,43.71,42.11,47.35,1010.97,303.89,210.64,236.57,-21.8846,-17.3777,6.7245,0.014884,-0.008296,-0.007564,-0.005017,-0.001414,-7.7e-05
2022-04-26 08:52:33.313055,atlantes_167.jpg,12.726177154135623,55.498419252637106,419918.45581978996,57.94,43.65,42.12,46.6,1010.98,303.86,211.54,233.91,-21.417,-17.6493,5.7661,0.0183,-0.007564,-0.008296,-0.004709,0.001946,-0.001298
2022-04-26 08:52:48.313062,atlantes_168.jpg,11.97341173263511,56.06507766303713,419972.3259588667,59.4,43.78,42.14,47.25,1010.98,304.07,208.7,233.74,-21.7604,-17.7703,4.3055,0.01586,-0.006832,-0.010492,-0.001041,0.000419,0.00023
2022-04-26 08:53:03.313064,atlantes_169.jpg,11.218920856912305,56.628475190198785,420031.50298976206,56.48,43.82,42.16,47.53,1010.98,303.39,210.73,229.94,-22.2642,-18.2026,4.3741,0.016348,-0.008296,-0.008296,-0.003482,0.000114,-0.002518
2022-04-26 08:53:18.313066,atlantes_170.jpg,10.463093017307123,57.188629998264574,420096.03131851176,58.43,43.76,42.19,47.4,1010.98,303.08,208.08,228.65,-22.5925,-18.0359,3.5765,0.016348,-0.008052,-0.008296,-0.00409,0.000725,-0.001295
2022-04-26 08:53:33.313072,atlantes_171.jpg,9.707300623086226,57.744840768127645,420165.84642504406,56.48,43.83,42.2,47.33,1010.97,303.23,209.0,226.17,-22.7301,-17.6064,2.4257,0.017812,-0.007564,-0.007808,-0.005309,-0.001718,-0.000378
2022-04-26 08:53:48.313079,atlantes_172.jpg,8.949548662164377,58.29888002806098,420241.18778017635,55.99,43.89,42.23,47.4,1010.98,304.3,208.47,223.53,-23.0143,-17.8501,1.7445,0.020008,-0.008784,-0.009028,-0.006527,0.000725,-0.001598
2022-04-26 08:54:03.313085,atlantes_173.jpg,8.190762940924804,58.850361866189694,420322.0257869719,56.48,43.76,42.25,48.18,1010.99,303.89,208.05,221.91,-23.2527,-18.0998,0.6184,0.017324,-0.008052,-0.008052,-0.002553,-0.000497,0.000235
2022-04-26 08:54:18.313091,atlantes_174.jpg,7.43123523058229,59.399368624635414,420408.37476124224,55.99,44.07,42.28,47.33,1010.95,303.19,207.67,219.94,-23.3951,-17.4605,-0.1793,0.019032,-0.006832,-0.008052,-0.004077,-0.000802,0.000541
2022-04-26 08:54:33.313095,atlantes_175.jpg,6.670725111680127,59.94636412820736,420500.30264423636,54.53,43.98,42.3,47.19,1010.97,302.35,206.24,217.92,-23.3693,-17.4757,-0.779,0.0183,-0.007808,-0.010248,-0.005905,0.001336,-0.00068
2022-04-26 08:54:48.313099,atlantes_176.jpg,5.909447823692321,60.49147934398399,420597.81998011377,55.5,43.89,42.32,47.32,1010.98,300.33,205.35,217.04,-23.6444,-17.3855,-2.3903,0.015372,-0.00854,-0.00976,-0.001016,-0.001107,-0.000374
2022-04-26 08:55:03.313100,atlantes_177.jpg,5.14694972298229,61.03532055750415,420701.01966190053,55.5,43.96,42.33,47.33,1010.99,301.76,203.56,216.7,-23.7491,-17.6008,-2.4514,0.014884,-0.009516,-0.009272,-0.004372,0.000726,-0.000984
2022-04-26 08:55:18.313107,atlantes_178.jpg,4.384600220451541,61.57719313765523,420809.7367154652,54.53,43.98,42.34,47.3,1010.96,302.13,203.87,215.68,-24.4904,-17.511,-3.4821,0.018056,-0.008052,-0.007564,-0.003453,-0.000496,-0.001593
2022-04-26 08:55:33.313108,atlantes_179.jpg,3.621626834771771,62.117927468227236,420924.09064193536,55.99,44.03,42.36,47.12,1010.99,302.11,204.8,212.91,-24.3384,-16.9823,-4.251,0.019032,-0.008296,-0.008784,-0.001312,-0.000801,-0.001592
2022-04-26 08:55:48.313109,atlantes_180.jpg,2.8586852537678253,62.65733675630213,421043.98920812097,55.5,44.0,42.37,47.24,1011.0,301.67,206.74,210.4,-24.2049,-17.5499,-5.1416,0.018056,-0.00732,-0.009028,-0.003447,-0.000496,-0.001286
2022-04-26 08:56:03.313113,atlantes_181.jpg,2.094696815957142,63.19645870819363,421169.60798872204,56.48,44.0,42.38,47.06,1011.0,301.17,205.15,209.93,-24.1595,-17.4313,-5.9747,0.018788,-0.007076,-0.008784,-0.002527,0.000421,-0.002201
2022-04-26 08:56:18.313115,atlantes_182.jpg,1.3308188219431554,63.734750457512774,421300.75727438193,55.5,43.94,42.4,47.26,1010.98,301.39,203.5,208.2,-23.8878,-17.8815,-6.8939,0.018056,-0.00732,-0.007564,-0.00344,-0.001717,-0.001894
2022-04-26 08:56:33.313122,atlantes_183.jpg,0.5668093290076516,64.27265671419364,421437.4645708637,55.99,43.98,42.4,47.48,1010.96,301.71,204.5,206.22,-24.8242,-17.3705,-8.148,0.0183,-0.008052,-0.009272,-0.006185,-0.001411,-0.001283
2022-04-26 08:56:48.313123,atlantes_184.jpg,-0.19685794366779868,64.8101171722036,421579.6239528649,55.02,44.08,42.41,47.31,1010.98,302.3,203.95,204.77,-24.7025,-16.9862,-9.534,0.015372,-0.007564,-0.010492,-0.00221,-0.000495,-0.000977
2022-04-26 08:57:03.313125,atlantes_185.jpg,-0.9607990030149668,65.34783807540643,421727.3258538672,55.5,43.96,42.41,47.31,1010.98,301.16,205.46,201.28,-24.7104,-17.8241,-9.7571,0.017568,-0.008052,-0.006344,-0.002512,0.000727,-0.001586
2022-04-26 08:57:18.313127,atlantes_186.jpg,-1.7249644399412187,65.88605772886037,421880.53795889457,55.02,44.1,42.42,47.23,1010.99,301.52,204.45,202.74,-24.6783,-17.6106,-10.5404,0.018788,-0.008784,-0.010492,-0.001593,0.000116,-0.00189
2022-04-26 08:57:33.313127,atlantes_187.jpg,-2.4880305877920614,66.42411639374696,422038.9528179808,55.02,44.05,42.43,46.97,1010.98,300.29,205.85,200.71,-24.8146,-17.7057,-11.3744,0.01708,-0.008296,-0.008296,-0.001589,-0.001717,-0.000973
2022-04-26 08:57:48.313131,atlantes_188.jpg,-3.251839857249076,66.96358742904432,422202.9118238647,55.02,44.0,42.45,46.96,1010.94,300.47,206.65,200.96,-24.5442,-16.9249,-12.7357,0.0183,-0.008296,-0.00854,-0.003724,0.000115,-0.000666
2022-04-26 08:58:03.313133,atlantes_189.jpg,-4.0141369127462845,67.50315224568031,422371.88095652097,55.99,44.01,42.45,47.08,1010.96,300.73,206.33,198.5,-25.0781,-17.1055,-13.4157,0.017568,-0.00732,-0.009516,-0.002193,-0.00019,-0.000665
2022-04-26 08:58:18.313135,atlantes_190.jpg,-4.776873157711472,68.04446775040564,422546.2351912295,55.5,43.96,42.45,47.17,1010.96,301.5,207.43,196.83,-24.8409,-17.045,-14.3152,0.018056,-0.009272,-0.009028,0.000559,-0.001107,-0.00097
2022-04-26 08:58:33.313135,atlantes_191.jpg,-5.538697927235697,68.58685464609074,422725.61013285175,55.99,44.01,42.46,48.27,1010.97,301.31,207.95,194.17,-24.7275,-16.649,-14.7848,0.015616,-0.009516,-0.010248,-0.002797,0.000115,-5.2e-05
2022-04-26 08:58:48.313136,atlantes_192.jpg,-6.299948269428518,69.13083163201833,422910.01471073733,55.5,44.1,42.46,47.37,1010.93,302.27,208.15,192.67,-24.9864,-16.7112,-15.9025,0.01708,-0.0061,-0.00732,-0.003099,0.001948,-0.000968
2022-04-26 08:59:03.313142,atlantes_193.jpg,-7.060112511001907,69.6763136630911,423099.24867166614,55.99,44.14,42.47,47.1,1010.94,301.84,207.52,190.75,-24.9801,-16.9179,-16.9359,0.016348,-0.009272,-0.008296,-0.003401,0.000726,-5e-05
2022-04-26 08:59:18.313150,atlantes_194.jpg,-7.819595212068062,70.22387438306438,423293.331295023,55.02,44.07,42.48,47.19,1010.92,300.69,206.4,189.07,-24.921,-16.6551,-17.4095,0.017812,-0.007564,-0.009516,-0.002481,0.000115,-0.002186
2022-04-26 08:59:33.313155,atlantes_195.jpg,-8.578134295910203,70.77361259935967,423492.1116478158,55.99,44.05,42.48,47.05,1010.92,300.55,208.48,186.67,-24.7432,-16.7605,-18.0461,0.018544,-0.00732,-0.009272,-0.002477,0.000116,-0.001879
2022-04-26 08:59:48.313158,atlantes_196.jpg,-9.335659638199365,71.32576772518593,423695.4802778578,55.02,44.05,42.48,46.97,1010.9,300.24,208.36,186.56,-24.9972,-16.4964,-18.8833,0.017812,-0.006832,-0.007808,-0.004917,0.001337,-0.002184
2022-04-26 09:00:03.313158,atlantes_197.jpg,-10.091675403101785,71.88026947259564,423903.20392261486,55.99,44.08,42.49,46.95,1010.9,301.05,205.58,187.76,-24.7525,-16.1042,-19.4827,0.017324,-0.009028,-0.010492,-0.005829,0.001949,-0.000656
2022-04-26 09:00:18.313160,atlantes_198.jpg,-10.84753014387926,72.43840950076446,424115.5573311233,55.99,44.05,42.49,47.07,1010.89,301.9,201.47,190.02,-25.1045,-15.8759,-20.2701,0.015616,-0.00854,-0.007808,-0.002771,-0.002325,-0.001266
2022-04-26 09:00:33.313162,atlantes_199.jpg,-11.601335109192028,72.99909746677098,424331.90560877684,55.99,44.12,42.49,47.07,1010.87,303.14,201.13,188.83,-25.2593,-16.2045,-21.3384,0.019276,-0.00732,-0.007808,-0.005515,-0.001408,-0.000349
2022-04-26 09:00:48.313164,atlantes_200.jpg,-12.353395245646718,73.56285773588415,424552.2144127951,55.02,44.16,42.5,47.03,1010.87,303.06,203.14,184.2,-25.0142,-15.8972,-21.6973,0.01952,-0.007564,-0.010004,-0.003984,0.000424,-0.000959
2022-04-26 09:01:03.313172,atlantes_201.jpg,-13.103920355042197,74.13015534290552,424776.4251147618,55.5,44.14,42.51,46.85,1010.85,301.98,201.13,184.89,-24.3836,-16.0108,-21.7885,0.014884,-0.008296,-0.010248,-0.00459,-0.000492,-0.001263
2022-04-26 09:01:18.313178,atlantes_202.jpg,-13.853497686113817,74.7017568427011,425004.5970093927,55.02,44.1,42.51,47.04,1010.87,300.36,201.92,184.23,-24.2924,-15.5549,-22.559,0.016592,-0.007564,-0.009028,-0.002144,-0.000492,-0.002178
2022-04-26 09:01:33.313185,atlantes_203.jpg,-14.601023060467595,75.27714585335512,425236.2706042695,55.99,44.14,42.51,46.9,1010.85,299.45,201.15,184.76,-24.1202,-15.6031,-22.9623,0.018788,-0.008052,-0.009272,-0.007332,0.00012,-0.000649
2022-04-26 09:01:48.313187,atlantes_204.jpg,-15.346700223446284,75.85680365730842,425471.37562359,55.5,44.12,42.51,46.84,1010.86,300.72,199.06,184.79,-24.0969,-15.5733,-24.516,0.0183,-0.008784,-0.009028,-0.003052,-0.000185,-0.000648
2022-04-26 09:02:03.313194,atlantes_205.jpg,-16.090395604959102,76.44096022118697,425709.7348824546,55.99,44.14,42.53,47.27,1010.87,300.62,197.16,184.54,-24.249,-15.0576,-25.0748,0.016104,-0.008052,-0.009028,-0.005186,0.000121,-0.001258
2022-04-26 09:02:18.313201,atlantes_206.jpg,-16.831902496330528,77.02979213116326,425951.14234247623,55.5,44.08,42.54,47.14,1010.89,301.1,202.91,180.07,-24.1921,-14.4421,-25.2287,0.01708,-0.007564,-0.007564,-0.004571,-0.000184,-0.000952
2022-04-26 09:02:33.313207,atlantes_207.jpg,-17.571576815115176,77.62393313829612,426195.5732912564,55.99,44.14,42.55,47.18,1010.85,299.51,201.72,180.16,-23.9791,-15.3311,-25.5877,0.019032,-0.00854,-0.007808,-0.003956,-0.00049,-0.000645
2022-04-26 09:02:48.313209,atlantes_208.jpg,-18.3087785170934,78.22322722149585,426442.67184510943,55.02,44.16,42.53,46.8,1010.87,299.92,201.86,179.39,-24.1753,-14.736,-26.9638,0.016104,-0.010004,-0.00976,-0.005479,-0.001711,-0.001255
2022-04-26 09:03:03.313210,atlantes_209.jpg,-19.043930292162475,78.82838485908965,426692.43218313315,55.99,44.14,42.55,47.1,1010.89,300.57,202.2,178.0,-23.6033,-14.8888,-27.8236,0.015372,-0.009516,-0.010492,-0.003947,-0.002321,-0.001559
2022-04-26 09:03:18.313210,atlantes_210.jpg,-19.776069765409055,79.43898437078907,426944.3750210197,55.99,44.21,42.56,46.85,1010.86,299.87,205.47,174.93,-23.7498,-14.93,-28.017,0.018056,-0.007564,-0.008296,-0.004248,-0.000794,-0.001558
2022-04-26 09:03:33.313211,atlantes_211.jpg,-20.505337740368596,80.0555127831592,427198.39028092986,55.5,44.21,42.57,46.82,1010.88,300.8,201.86,176.46,-23.482,-14.2667,-28.965,0.016104,-0.009028,-0.010004,-0.003022,0.000428,0.000581
2022-04-26 09:03:48.313218,atlantes_212.jpg,-21.23255262930842,80.67906169801573,427454.6098238808,55.5,44.26,42.58,47.15,1010.87,302.68,202.39,175.1,-23.1935,-14.4026,-30.3535,0.015128,-0.008052,-0.010004,-0.003629,-0.001099,-0.001861
2022-04-26 09:04:03.313221,atlantes_213.jpg,-21.95648197735003,81.30898149666254,427712.4431281261,55.99,44.26,42.58,47.06,1010.88,302.88,203.64,174.01,-23.0282,-14.2195,-30.1041,0.016836,-0.008296,-0.008052,-0.003931,0.000429,-0.000333
2022-04-26 09:04:18.313228,atlantes_214.jpg,-22.677050323849976,81.94560408922729,427971.69931442983,55.5,44.16,42.59,47.17,1010.89,301.61,201.59,175.88,-22.9331,-14.1701,-30.6482,0.016836,-0.009028,-0.008784,-0.003011,0.001039,-0.000637
2022-04-26 09:04:33.313228,atlantes_215.jpg,-23.395137629227417,82.59013686462782,428232.53541997087,55.5,44.26,42.59,47.14,1010.84,301.25,202.39,175.84,-22.2177,-14.2102,-31.6672,0.016836,-0.00854,-0.010004,-0.004534,-0.000793,-0.001246
2022-04-26 09:04:48.313230,atlantes_216.jpg,-24.1095326264768,83.24193312085674,428494.35038555716,56.48,44.35,42.6,46.76,1010.83,302.9,201.12,175.86,-22.656,-14.0585,-31.7244,0.016104,-0.00854,-0.0122,-0.001782,-0.002625,-0.000328
2022-04-26 09:05:03.313235,atlantes_217.jpg,-24.82011307989321,83.90131033673374,428756.9324080855,55.5,44.21,42.61,46.89,1010.82,304.55,200.79,176.23,-22.1576,-13.8165,-32.6607,0.018788,-0.008052,-0.008784,-0.004221,0.001041,-0.001854
2022-04-26 09:05:18.313240,atlantes_218.jpg,-25.52772072540976,84.56951453908898,429020.429658565,55.99,44.19,42.62,46.84,1010.81,304.36,200.95,174.61,-21.8951,-13.9414,-32.9249,0.017324,-0.00732,-0.009516,-0.004829,-0.000792,-2.1e-05
2022-04-26 09:05:33.313248,atlantes_219.jpg,-26.23091632491911,85.24565709161763,429284.1418599454,55.99,44.19,42.64,46.96,1010.87,302.61,203.57,172.38,-22.3199,-13.9134,-32.9781,0.017568,-0.007076,-0.00732,-0.004825,-0.000486,-2e-05
2022-04-26 09:05:48.313254,atlantes_220.jpg,-26.930816686399385,85.9312963678948,429548.3233322691,55.5,44.26,42.64,47.0,1010.82,303.77,200.92,171.97,-21.8694,-12.8777,-33.6831,0.019032,-0.007076,-0.006588,-0.003904,0.000431,-0.001546
2022-04-26 09:06:03.313262,atlantes_221.jpg,-27.626310296079474,86.625850824914,429812.3916235733,55.99,44.3,42.64,46.91,1010.78,304.34,199.72,172.47,-21.7563,-13.3085,-34.3805,0.017324,-0.00854,-0.00854,-0.002679,0.001347,-0.001545
2022-04-26 09:06:18.313270,atlantes_222.jpg,-28.317476976212404,87.3299025693039,430076.21239719476,56.48,44.25,42.65,46.99,1010.78,302.37,200.27,172.53,-21.2678,-13.3577,-34.8189,0.016836,-0.008296,-0.009272,-0.005118,-0.00018,-0.001544
2022-04-26 09:06:33.313270,atlantes_223.jpg,-29.003886624428127,88.04352964480438,430339.4580654226,56.48,44.35,42.66,46.87,1010.81,301.24,203.13,169.85,-21.1132,-13.2146,-35.4659,0.01586,-0.006344,-0.007808,-0.004809,0.000431,-0.000627
2022-04-26 09:06:48.313270,atlantes_224.jpg,-29.686311043337383,88.76808876726123,430602.264319693,56.48,44.28,42.67,46.87,1010.8,301.64,204.78,169.65,-20.958,-13.1992,-35.8626,0.019032,-0.009272,-0.007808,-0.003889,-0.001096,-0.002458
2022-04-26 09:07:03.313271,atlantes_225.jpg,-30.363276535578446,89.50257449434393,430863.9041862992,55.5,44.25,42.67,46.91,1010.8,301.47,203.92,167.61,-20.2187,-13.4314,-36.4962,0.016836,-0.008784,-0.009516,-0.005718,-0.000485,-1.3e-05
2022-04-26 09:07:18.313272,atlantes_226.jpg,-31.03583474694114,90.24870345364671,431124.6263425944,55.99,44.39,42.68,46.8,1010.78,301.91,202.13,167.5,-20.6743,-13.3719,-36.345,0.016104,-0.008052,-0.007564,-0.006324,-0.001401,-0.000928
2022-04-26 09:07:33.313278,atlantes_227.jpg,-31.702524390641063,91.0054457326931,431383.708951747,55.5,44.23,42.68,46.83,1010.78,302.03,197.97,169.54,-20.5286,-13.2238,-37.1728,0.0183,-0.00854,-0.008052,-0.003571,0.001348,-0.000621
2022-04-26 09:07:48.313284,atlantes_228.jpg,-32.364423962104304,91.77463661406563,431641.41819502745,55.99,44.23,42.69,46.72,1010.78,302.54,198.43,168.33,-20.7214,-12.4435,-36.8249,0.019032,-0.007808,-0.008052,-0.007232,-0.0014,-0.000925
2022-04-26 09:08:03.313291,atlantes_229.jpg,-33.02034274775107,92.55553396832894,431897.14080948953,55.99,44.28,42.7,46.8,1010.79,302.29,201.29,166.6,-20.5563,-13.1703,-38.4948,0.016836,-0.008296,-0.007564,-0.005395,-0.000178,-0.000923
2022-04-26 09:08:18.313298,atlantes_230.jpg,-33.67009007949218,93.34853068705343,432150.65526424017,55.99,44.37,42.7,46.97,1010.77,302.12,203.59,165.43,-19.8372,-12.8441,-37.921,0.014884,-0.00732,-0.008296,-0.00478,0.001044,-0.000922
2022-04-26 09:08:33.313299,atlantes_231.jpg,-34.314355205109294,94.15514963779476,432402.0872318263,55.02,44.32,42.7,46.83,1010.81,301.34,205.11,164.38,-19.7796,-12.9573,-38.5106,0.017568,-0.008784,-0.00854,-0.002638,0.000128,-0.001532
2022-04-26 09:08:48.313299,atlantes_232.jpg,-34.951542778544066,94.97407324572721,432650.6746579461,55.99,44.25,42.72,46.91,1010.8,301.91,204.84,163.08,-19.6461,-12.7548,-39.2016,0.015128,-0.00732,-0.008784,-0.002328,0.000433,-0.001225
2022-04-26 09:09:03.313305,atlantes_233.jpg,-35.58300482067332,95.80775288191836,432896.8093380564,56.48,44.44,42.72,47.1,1010.77,301.75,204.81,161.77,-19.3165,-12.6333,-40.4879,0.015372,-0.008052,-0.009028,-0.004462,0.001044,-0.000613
2022-04-26 09:09:18.313310,atlantes_234.jpg,-36.206765097459765,96.65430534202483,433139.58987609873,55.5,44.3,42.72,46.86,1010.79,302.34,205.31,163.92,-18.904,-12.8021,-40.2198,0.018544,-0.009516,-0.009028,-0.004764,-0.001094,-0.001528
2022-04-26 09:09:33.313313,atlantes_235.jpg,-36.824156584499285,97.51628135665344,433379.40848890896,55.5,44.32,42.73,46.99,1010.8,301.84,202.34,165.32,-18.5734,-13.1314,-40.6246,0.0183,-0.00976,-0.008296,-0.003233,-0.000177,-0.00061
2022-04-26 09:09:48.313318,atlantes_236.jpg,-37.43400816354727,98.39284897891056,433615.6877110959,55.5,44.48,42.74,46.89,1010.81,303.28,203.59,163.13,-18.2453,-13.0508,-40.7099,0.014884,-0.00854,-0.008784,-0.003839,0.000434,-0.001221
2022-04-26 09:10:03.313325,atlantes_237.jpg,-38.03594353952613,99.28423140085455,433848.16564307926,55.5,44.34,42.74,46.8,1010.79,303.97,204.68,162.04,-18.0687,-12.3209,-40.1872,0.016348,-0.007564,-0.009516,-0.003528,0.001045,-0.000304
2022-04-26 09:10:18.313329,atlantes_238.jpg,-38.63006390832464,100.19138173249351,434076.7701447271,55.5,44.44,42.75,47.06,1010.8,303.26,202.54,163.19,-17.7007,-12.5684,-40.6427,0.020008,-0.008296,-0.009028,-0.00505,-0.000482,-0.001524
2022-04-26 09:10:33.313334,atlantes_239.jpg,-39.215966586376645,101.11452939299366,434301.2399355882,56.48,44.32,42.75,46.76,1010.8,303.16,202.01,162.85,-17.5068,-12.387,-42.0441,0.0183,-0.005856,-0.007564,-0.002602,-0.002924,-0.000302
2022-04-26 09:10:48.313342,atlantes_240.jpg,-39.79329291734693,102.05396447821701,434521.33725714823,55.99,44.37,42.76,46.95,1010.83,304.02,200.78,162.88,-17.7161,-12.8714,-42.2597,0.01708,-0.007076,-0.00976,-0.003514,0.001352,-0.000301
2022-04-26 09:11:03.313349,atlantes_241.jpg,-40.361776684497265,103.01013058081112,434736.8660704509,56.48,44.46,42.77,46.91,1010.81,303.71,198.24,163.65,-17.2432,-12.5354,-42.1338,0.01708,-0.00854,-0.009272,-0.001677,0.001963,-0.000911
2022-04-26 09:11:18.313352,atlantes_242.jpg,-40.92109755997549,103.98339189403504,434947.6161286954,55.02,44.5,42.77,47.17,1010.79,306.03,197.19,163.92,-16.9818,-12.7066,-42.9002,0.016348,-0.008296,-0.006344,-0.004727,-0.000785,-0.000604
2022-04-26 09:11:33.313358,atlantes_243.jpg,-41.47089303223852,104.9740401896713,435153.3681277697,56.48,44.35,42.78,46.76,1010.79,305.71,199.28,161.62,-16.7716,-12.4829,-42.3083,0.01708,-0.008052,-0.008052,-0.00625,0.000131,-0.001824
2022-04-26 09:11:48.313360,atlantes_244.jpg,-42.01080897891476,105.98237736202263,435353.9130787428,55.99,44.42,42.78,46.87,1010.79,304.42,196.4,163.58,-16.5609,-12.1427,-43.6505,0.017812,-0.010492,-0.008784,-0.004719,0.001352,-0.001517
2022-04-26 09:12:03.313365,atlantes_245.jpg,-42.54027538506593,107.00827473554943,435548.9700022397,55.5,44.35,42.78,46.74,1010.76,304.16,195.68,164.45,-16.1403,-12.5307,-43.9232,0.016104,-0.00854,-0.007808,-0.003799,-0.00048,-0.001515
2022-04-26 09:12:18.313368,atlantes_246.jpg,-43.05967475612987,108.05348623186462,435738.6142157074,55.99,44.41,42.79,46.76,1010.79,303.76,195.68,165.36,-16.0547,-12.9252,-44.1878,0.017324,-0.007808,-0.008784,-0.008071,-0.001396,-0.00243
2022-04-26 09:12:33.313374,atlantes_247.jpg,-43.56788742516127,109.11679123743322,435922.3773786609,55.99,44.51,42.8,46.79,1010.78,303.52,197.17,163.09,-15.5379,-12.9169,-43.2285,0.018056,-0.008296,-0.010248,-0.005928,-0.000174,-0.002734
2022-04-26 09:12:48.313382,atlantes_248.jpg,-44.06479634998821,110.19893927119544,436100.1661733044,56.97,44.46,42.81,46.82,1010.8,302.98,193.89,165.38,-15.1101,-13.0213,-43.9202,0.017324,-0.00854,-0.00976,-0.004702,-0.001395,-0.001511
2022-04-26 09:13:03.313385,atlantes_249.jpg,-44.549783099384,111.29959390576191,436271.7143283524,55.5,44.48,42.81,46.8,1010.81,303.1,195.5,164.4,-15.318,-12.9045,-44.6029,0.016592,-0.007808,-0.009272,-0.004698,-0.001395,-0.002731
2022-04-26 09:13:18.313386,atlantes_250.jpg,-45.02311452120459,112.42044818315117,436437.0743021611,55.99,44.44,42.81,46.77,1010.8,301.9,196.94,162.59,-14.7663,-12.6075,-45.6846,0.015616,-0.006344,-0.008052,-0.004082,-0.00109,-0.00273
2022-04-26 09:13:33.313392,atlantes_251.jpg,-45.4835422029792,113.55961851384998,436595.774911588,56.48,44.41,42.82,46.72,1010.79,301.69,198.3,161.47,-14.6807,-12.71,-45.9214,0.017568,-0.009028,-0.009272,-0.005606,0.000742,-0.002117
2022-04-26 09:13:48.313393,atlantes_252.jpg,-45.9314985220434,114.71926403198069,436747.93535526196,55.5,44.44,42.82,47.06,1010.77,302.36,196.9,162.75,-14.7948,-12.688,-46.2629,0.016348,-0.008784,-0.008784,-0.003463,0.001047,-0.002421
2022-04-26 09:14:03.313396,atlantes_253.jpg,-46.36595824878127,115.89786855173503,436893.1809988438,55.02,44.37,42.83,46.56,1010.77,300.79,199.92,160.47,-14.0327,-12.5851,-45.8919,0.01708,-0.009272,-0.008052,-0.003764,-0.001396,-0.001198
2022-04-26 09:14:18.313399,atlantes_254.jpg,-46.78671225787412,117.0959395721117,437031.4234395056,56.97,44.48,42.83,46.75,1010.8,301.16,197.51,161.98,-13.3089,-13.0398,-45.8571,0.01952,-0.00854,-0.009272,-0.006203,-0.00048,-0.001807
2022-04-26 09:14:33.313406,atlantes_255.jpg,-47.19316983236942,118.31287656731558,437162.4544621393,56.97,44.37,42.84,46.56,1010.81,301.11,199.59,160.73,-12.3811,-13.0399,-46.3699,0.017568,-0.008052,-0.010248,-0.003144,0.001048,-0.002111
2022-04-26 09:14:48.313413,atlantes_256.jpg,-47.58528139704513,119.54966103534274,437286.2460869223,55.5,44.41,42.83,46.68,1010.8,301.22,201.49,158.93,-13.1361,-12.4848,-45.7112,0.016592,-0.007808,-0.009028,-0.003139,-0.00109,-0.000582
